stop_id,stop_code,stop_name,stop_desc,stop_lat,stop_lon,zone_id,stop_url,location_type,parent_station,platform_code
890000,890000,"Stockland Elizabeth Street",, -19.298033, 146.764370,4,http://translink.com.au/stop/890000/gtfs/,0,,
890001,890001,"Anne St at Richard Street",, -19.292351, 146.766626,4,http://translink.com.au/stop/890001/gtfs/,0,,
890002,890002,"Fulham Rd at Vincent State School",, -19.288469, 146.764218,4,http://translink.com.au/stop/890002/gtfs/,0,,
890003,890003,"Fulham Rd at Vincent Shopping Centre",, -19.288185, 146.761811,4,http://translink.com.au/stop/890003/gtfs/,0,,
890004,890004,"Fulham Rd at St James Village",, -19.288274, 146.759703,4,http://translink.com.au/stop/890004/gtfs/,0,,
890005,890005,"Fulham Rd at Heatley Park",, -19.287374, 146.756877,4,http://translink.com.au/stop/890005/gtfs/,0,,
890006,890006,"Fulham Rd at Heatley Secondary",, -19.288029, 146.753816,4,http://translink.com.au/stop/890006/gtfs/,0,,
890007,890007,"Angus Avenue near Dalrymple Rd",, -19.287307, 146.750644,4,http://translink.com.au/stop/890007/gtfs/,0,,
890008,890008,"Banfield Dr at Louisa Creek",, -19.283170, 146.750305,4,http://translink.com.au/stop/890008/gtfs/,0,,
890009,890009,"Banfield Dr at Pankina Street",, -19.280780, 146.750557,4,http://translink.com.au/stop/890009/gtfs/,0,,
890010,890010,"Banfield Dr at High Vista Drive",, -19.279058, 146.749577,4,http://translink.com.au/stop/890010/gtfs/,0,,
890011,890011,"Banfield Dr at Galway Court",, -19.277140, 146.749633,4,http://translink.com.au/stop/890011/gtfs/,0,,
890012,890012,"Banfield Dr at Banora Court",, -19.274978, 146.749891,4,http://translink.com.au/stop/890012/gtfs/,0,,
890013,890013,"Mt Louisa Drive near Banfield Dr",, -19.274659, 146.748889,4,http://translink.com.au/stop/890013/gtfs/,0,,
890014,890014,"Mount Louisa Dr at Bennett Street",, -19.273373, 146.744033,4,http://translink.com.au/stop/890014/gtfs/,0,,
890015,890015,"Bayswater Rd at Stretton Lane",, -19.271336, 146.745045,4,http://translink.com.au/stop/890015/gtfs/,0,,
890016,890016,"Bayswater Rd at Partridge Street",, -19.271500, 146.746387,4,http://translink.com.au/stop/890016/gtfs/,0,,
890017,890017,"Bayswater Rd at Mathe Street",, -19.271640, 146.748629,4,http://translink.com.au/stop/890017/gtfs/,0,,
890018,890018,"Bayswater Rd at Greg Jabs Court",, -19.272497, 146.755842,4,http://translink.com.au/stop/890018/gtfs/,0,,
890019,890019,"Bayswater Rd at Duckworth Street",, -19.273035, 146.760990,4,http://translink.com.au/stop/890019/gtfs/,0,,
890020,890020,"Bayswater Rd at Pilkington Street",, -19.273528, 146.766037,4,http://translink.com.au/stop/890020/gtfs/,0,,
890021,890021,"Bayswater Rd at Mooney Street",, -19.274533, 146.773150,4,http://translink.com.au/stop/890021/gtfs/,0,,
890022,890022,"Bayswater Rd at Trevor Street",, -19.274721, 146.774738,2,http://translink.com.au/stop/890022/gtfs/,0,,
890023,890023,"Bayswater Rd at Ferguson Street",, -19.275000, 146.777626,2,http://translink.com.au/stop/890023/gtfs/,0,,
890024,890024,"Bayswater Rd at Reardon Street",, -19.275245, 146.779986,2,http://translink.com.au/stop/890024/gtfs/,0,,
890025,890025,"Bayswater Rd at Hugh Street",, -19.275356, 146.781263,2,http://translink.com.au/stop/890025/gtfs/,0,,
890026,890026,"Bayswater Rd at Hugh Street",, -19.275711, 146.784443,2,http://translink.com.au/stop/890026/gtfs/,0,,
890027,890027,"Bayswater Rd at Hindley Street",, -19.275984, 146.787520,2,http://translink.com.au/stop/890027/gtfs/,0,,
890028,890028,"Bayswater Rd at Kings Road",, -19.276389, 146.791676,2,http://translink.com.au/stop/890028/gtfs/,0,,
890029,890029,"Castletown Shopping Centre",, -19.273063, 146.790830,2,http://translink.com.au/stop/890029/gtfs/,0,,
890030,890030,"Kings Rd at Showgrounds",, -19.269363, 146.792820,2,http://translink.com.au/stop/890030/gtfs/,0,,
890031,890031,"Cowley St at Humphrey Street",, -19.266827, 146.793340,2,http://translink.com.au/stop/890031/gtfs/,0,,
890032,890032,"Cowley St at North Street",, -19.264757, 146.793601,2,http://translink.com.au/stop/890032/gtfs/,0,,
890033,890033,"Harold St at James Street",, -19.261736, 146.792009,2,http://translink.com.au/stop/890033/gtfs/,0,,
890034,890034,"Percy St at Cutheringa Park",, -19.259335, 146.786607,2,http://translink.com.au/stop/890034/gtfs/,0,,
890035,890035,"Bundock St at Stagpole Street",, -19.255483, 146.787577,2,http://translink.com.au/stop/890035/gtfs/,0,,
890036,890036,"Bundock St at William Street",, -19.254012, 146.787845,2,http://translink.com.au/stop/890036/gtfs/,0,,
890037,890037,"Bundock St at Old Common Road",, -19.250344, 146.789490,2,http://translink.com.au/stop/890037/gtfs/,0,,
890038,890038,"Bundock St at Evans Street",, -19.249152, 146.791260,2,http://translink.com.au/stop/890038/gtfs/,0,,
890039,890039,"Bundock St at Taylor Street",, -19.248385, 146.792399,2,http://translink.com.au/stop/890039/gtfs/,0,,
890040,890040,"Bundock St at Bishop Street",, -19.246405, 146.793761,2,http://translink.com.au/stop/890040/gtfs/,0,,
890041,890041,"Bundock St at Marshall Street",, -19.245457, 146.797483,2,http://translink.com.au/stop/890041/gtfs/,0,,
890042,890042,"Bundock St at Howitt Street",, -19.244984, 146.800158,1,http://translink.com.au/stop/890042/gtfs/,0,,
890043,890043,"Warburton St at Stuart Street",, -19.247392, 146.805971,1,http://translink.com.au/stop/890043/gtfs/,0,,
890044,890044,"Warburton St at Burke Street",, -19.249856, 146.810021,1,http://translink.com.au/stop/890044/gtfs/,0,,
890045,890045,"Warburton St at Central State School",, -19.251020, 146.812484,20,http://translink.com.au/stop/890045/gtfs/,0,,
890046,890046,"Eyre St at Leichhardt Street",, -19.252388, 146.814110,20,http://translink.com.au/stop/890046/gtfs/,0,,
890048,890048,"Eyre St near Gregory St (Hail n Ride)",, -19.252103, 146.813446,20,http://translink.com.au/stop/890048/gtfs/,0,,
890049,890049,"Warburton St at Central State School",, -19.251082, 146.812221,1,http://translink.com.au/stop/890049/gtfs/,0,,
890050,890050,"Warburton St at Stuart Street",, -19.248363, 146.807308,1,http://translink.com.au/stop/890050/gtfs/,0,,
890051,890051,"Warburton St at Landsborough Street",, -19.246707, 146.804331,1,http://translink.com.au/stop/890051/gtfs/,0,,
890052,890052,"Bundock St at Howitt Street",, -19.245108, 146.800960,1,http://translink.com.au/stop/890052/gtfs/,0,,
890053,890053,"Bundock St at Marshall Street",, -19.245591, 146.797975,2,http://translink.com.au/stop/890053/gtfs/,0,,
890054,890054,"Bundock St near Taylor St (Hail n Ride)",, -19.248733, 146.792268,2,http://translink.com.au/stop/890054/gtfs/,0,,
890055,890055,"Bundock St at Evans Street",, -19.249285, 146.791412,2,http://translink.com.au/stop/890055/gtfs/,0,,
890056,890056,"Bundock St at Old Common Road",, -19.250150, 146.790131,2,http://translink.com.au/stop/890056/gtfs/,0,,
890057,890057,"Bundock St at William Street",, -19.254039, 146.788081,2,http://translink.com.au/stop/890057/gtfs/,0,,
890058,890058,"Bundock St at Stagpole Street",, -19.255636, 146.787762,2,http://translink.com.au/stop/890058/gtfs/,0,,
890059,890059,"Bundock St at Harold Street",, -19.257243, 146.787472,2,http://translink.com.au/stop/890059/gtfs/,0,,
890060,890060,"Percy St at Cutheringa Park",, -19.259138, 146.786894,2,http://translink.com.au/stop/890060/gtfs/,0,,
890061,890061,"Crauford Street near Henry St",, -19.260706, 146.789092,2,http://translink.com.au/stop/890061/gtfs/,0,,
890062,890062,"Harold St at James Street",, -19.261710, 146.792278,2,http://translink.com.au/stop/890062/gtfs/,0,,
890063,890063,"Cowley St at North Street",, -19.265112, 146.793669,2,http://translink.com.au/stop/890063/gtfs/,0,,
890064,890064,"Cowley St at Humphrey Street",, -19.266895, 146.793438,2,http://translink.com.au/stop/890064/gtfs/,0,,
890065,890065,"Kings Rd at Showgrounds",, -19.269664, 146.792990,2,http://translink.com.au/stop/890065/gtfs/,0,,
890066,890066,"Bayswater Rd at Kings Road",, -19.276586, 146.791490,2,http://translink.com.au/stop/890066/gtfs/,0,,
890067,890067,"Bayswater Rd at Latchford Street",, -19.276355, 146.789452,2,http://translink.com.au/stop/890067/gtfs/,0,,
890068,890068,"Bayswater Rd at Hindley Street",, -19.275977, 146.785856,2,http://translink.com.au/stop/890068/gtfs/,0,,
890069,890069,"Bayswater Rd at Hugh Street",, -19.275841, 146.784451,2,http://translink.com.au/stop/890069/gtfs/,0,,
890070,890070,"Bayswater Rd at Reardon Street",, -19.275365, 146.779789,2,http://translink.com.au/stop/890070/gtfs/,0,,
890071,890071,"Bayswater Rd at Pilkington Street",, -19.273930, 146.767094,4,http://translink.com.au/stop/890071/gtfs/,0,,
890072,890072,"Bayswater Rd at Duckworth Street",, -19.273243, 146.761309,4,http://translink.com.au/stop/890072/gtfs/,0,,
890073,890073,"Bayswater Rd at Greg Jabs Court",, -19.272838, 146.756228,4,http://translink.com.au/stop/890073/gtfs/,0,,
890074,890074,"Bayswater Rd at Banfield Drive",, -19.272298, 146.750954,4,http://translink.com.au/stop/890074/gtfs/,0,,
890075,890075,"Bayswater Rd at Mather Street",, -19.272072, 146.749361,4,http://translink.com.au/stop/890075/gtfs/,0,,
890076,890076,"Mount Louisa Dr at Bennett Street",, -19.273269, 146.743928,4,http://translink.com.au/stop/890076/gtfs/,0,,
890077,890077,"Mount Louisa Dr near Hastings St",, -19.274392, 146.747370,4,http://translink.com.au/stop/890077/gtfs/,0,,
890078,890078,"Mt Louisa Drive near Banfield Dr",, -19.274597, 146.749075,4,http://translink.com.au/stop/890078/gtfs/,0,,
890079,890079,"Banfield Dr at Banora Court",, -19.275116, 146.749986,4,http://translink.com.au/stop/890079/gtfs/,0,,
890080,890080,"Banfield Dr at Galway Court",, -19.276899, 146.749797,4,http://translink.com.au/stop/890080/gtfs/,0,,
890081,890081,"Banfield Dr at High Vista Drive",, -19.279026, 146.749694,4,http://translink.com.au/stop/890081/gtfs/,0,,
890082,890082,"Banfield Dr at Pankina Street",, -19.280754, 146.750720,4,http://translink.com.au/stop/890082/gtfs/,0,,
890083,890083,"Banfield Dr at Louisa Creek",, -19.283334, 146.750370,4,http://translink.com.au/stop/890083/gtfs/,0,,
890084,890084,"Angus Avenue near Dalrymple Rd",, -19.287257, 146.750812,4,http://translink.com.au/stop/890084/gtfs/,0,,
890085,890085,"Fulham Rd at Heatley Secondary College",, -19.287235, 146.754754,4,http://translink.com.au/stop/890085/gtfs/,0,,
890086,890086,"Fulham Rd at St James Village",, -19.288168, 146.760217,4,http://translink.com.au/stop/890086/gtfs/,0,,
890087,890087,"Fulham Rd at Vincent Shopping Centre",, -19.287951, 146.762095,4,http://translink.com.au/stop/890087/gtfs/,0,,
890088,890088,"Fulham Rd at Vincent State School",, -19.288435, 146.764559,4,http://translink.com.au/stop/890088/gtfs/,0,,
890089,890089,"Fulham Rd at Anne Street",, -19.289343, 146.766123,4,http://translink.com.au/stop/890089/gtfs/,0,,
890090,890090,"Ross River Rd at Anne Street",, -19.297200, 146.767175,4,http://translink.com.au/stop/890090/gtfs/,0,,
890091,890091,"Stockland Ross River Road",, -19.298323, 146.762603,4,http://translink.com.au/stop/890091/gtfs/,0,,
890092,890092,"Townsville Hospital",, -19.319812, 146.762429,6,http://translink.com.au/stop/890092/gtfs/,0,,
890093,890093,"Townsville Hospital",, -19.319583, 146.761800,6,http://translink.com.au/stop/890093/gtfs/,0,,
890099,890099,"Student Union Mall",, -19.327664, 146.755916,6,http://translink.com.au/stop/890099/gtfs/,0,,
890100,890100,"Parkinson Rd at George Robert Halls",, -19.324426, 146.750886,6,http://translink.com.au/stop/890100/gtfs/,0,,
890101,890101,"Angus Smith Dr at Tennant Street",, -19.314931, 146.761254,6,http://translink.com.au/stop/890101/gtfs/,0,,
890102,890102,"Nathan St at Leopold Street",, -19.304275, 146.760682,4,http://translink.com.au/stop/890102/gtfs/,0,,
890103,890103,"Fulham Rd at Lonsdale Street",, -19.289249, 146.767545,4,http://translink.com.au/stop/890103/gtfs/,0,,
890104,890104,"Fulham Rd at Swanson St",, -19.288468, 146.770626,4,http://translink.com.au/stop/890104/gtfs/,0,,
890105,890105,"Mooney St at Sheffield Street",, -19.286086, 146.771163,4,http://translink.com.au/stop/890105/gtfs/,0,,
890106,890106,"Mooney St at Mcdonald Street",, -19.283956, 146.771398,4,http://translink.com.au/stop/890106/gtfs/,0,,
890107,890107,"Mooney St at Tippett Street",, -19.281898, 146.771640,4,http://translink.com.au/stop/890107/gtfs/,0,,
890108,890108,"Mooney St at Goodwin Street",, -19.278879, 146.772014,4,http://translink.com.au/stop/890108/gtfs/,0,,
890109,890109,"Mooney St at Maroong Street",, -19.276891, 146.772340,4,http://translink.com.au/stop/890109/gtfs/,0,,
890110,890110,"Meenan St at Lonerganne Street",, -19.262276, 146.774877,2,http://translink.com.au/stop/890110/gtfs/,0,,
890111,890111,"Meenan St at Clarke Street",, -19.260881, 146.775042,2,http://translink.com.au/stop/890111/gtfs/,0,,
890112,890112,"Meenan St at Dearness Street",, -19.259206, 146.775268,2,http://translink.com.au/stop/890112/gtfs/,0,,
890113,890113,"Meenan St at Halifax Street",, -19.257524, 146.775478,2,http://translink.com.au/stop/890113/gtfs/,0,,
890114,890114,"Lockheed St at Lockheed Street",, -19.257019, 146.776835,2,http://translink.com.au/stop/890114/gtfs/,0,,
890115,890115,"Peel St at Halifax Street",, -19.257650, 146.778130,2,http://translink.com.au/stop/890115/gtfs/,0,,
890116,890116,"Peel St at Lancaster Street",, -19.258807, 146.777782,2,http://translink.com.au/stop/890116/gtfs/,0,,
890119,890119,"Lonerganne St at Peel Street",, -19.263276, 146.777787,2,http://translink.com.au/stop/890119/gtfs/,0,,
890120,890120,"Lonerganne St at Ramsay Street",, -19.263448, 146.779337,2,http://translink.com.au/stop/890120/gtfs/,0,,
890121,890121,"Lonerganne St at Douglas Street",, -19.263614, 146.781031,2,http://translink.com.au/stop/890121/gtfs/,0,,
890122,890122,"Douglas St at Gorden Street",, -19.264615, 146.781771,2,http://translink.com.au/stop/890122/gtfs/,0,,
890124,890124,"Percy St at Ralston Street",, -19.261941, 146.785771,2,http://translink.com.au/stop/890124/gtfs/,0,,
890125,890125,"Primrose St at Marshall Street",, -19.244332, 146.798103,2,http://translink.com.au/stop/890125/gtfs/,0,,
890126,890126,"Heatleys Pde at Rowes Bay",, -19.241399, 146.791230,2,http://translink.com.au/stop/890126/gtfs/,0,,
890127,890127,"Heatleys Pde at Esk Street",, -19.239485, 146.789063,2,http://translink.com.au/stop/890127/gtfs/,0,,
890128,890128,"Cape Pallarenda Rd at RSL",, -19.235208, 146.785510,2,http://translink.com.au/stop/890128/gtfs/,0,,
890129,890129,"Cape Pallarenda Rd at Garden Settlement",, -19.216419, 146.776247,5,http://translink.com.au/stop/890129/gtfs/,0,,
890130,890130,"Esplanade at Seaward Cres",, -19.206177, 146.774581,5,http://translink.com.au/stop/890130/gtfs/,0,,
890131,890131,"Morrell Street near Wackett St",, -19.202841, 146.771679,5,http://translink.com.au/stop/890131/gtfs/,0,,
890132,890132,"Wackett St at Wackett Street",, -19.200432, 146.771128,5,http://translink.com.au/stop/890132/gtfs/,0,,
890133,890133,"Percy St at Ralston Street",, -19.261391, 146.786243,2,http://translink.com.au/stop/890133/gtfs/,0,,
890134,890134,"Douglas St at Gorden Street",, -19.264260, 146.781690,2,http://translink.com.au/stop/890134/gtfs/,0,,
890135,890135,"Lonerganne St at Douglas Street",, -19.263765, 146.781379,2,http://translink.com.au/stop/890135/gtfs/,0,,
890136,890136,"Lonerganne St at Ramsay Street",, -19.263556, 146.779263,2,http://translink.com.au/stop/890136/gtfs/,0,,
890137,890137,"Lonerganne St at Peel Street",, -19.263366, 146.777571,2,http://translink.com.au/stop/890137/gtfs/,0,,
890140,890140,"Peel St at Lancaster Street",, -19.258707, 146.777714,2,http://translink.com.au/stop/890140/gtfs/,0,,
890141,890141,"Peel St at Halifax Street",, -19.257650, 146.778028,2,http://translink.com.au/stop/890141/gtfs/,0,,
890142,890142,"Lockheed Street near Meenan St",, -19.257078, 146.776812,2,http://translink.com.au/stop/890142/gtfs/,0,,
890143,890143,"Meenan St at Halifax Street",, -19.257436, 146.775593,2,http://translink.com.au/stop/890143/gtfs/,0,,
890144,890144,"Meenan St at Dearness Street",, -19.259407, 146.775372,2,http://translink.com.au/stop/890144/gtfs/,0,,
890145,890145,"Meenan St at Clarke Street",, -19.261027, 146.775178,2,http://translink.com.au/stop/890145/gtfs/,0,,
890146,890146,"Meenan St at Lonerganne Street",, -19.263403, 146.774919,2,http://translink.com.au/stop/890146/gtfs/,0,,
890147,890147,"Ingham Rd at Garbutt Shopping Centre",, -19.266127, 146.782476,2,http://translink.com.au/stop/890147/gtfs/,0,,
890148,890148,"Mooney St at Tippett Street",, -19.281896, 146.771796,4,http://translink.com.au/stop/890148/gtfs/,0,,
890149,890149,"Mooney St at Tyrrell Street",, -19.287340, 146.771438,4,http://translink.com.au/stop/890149/gtfs/,0,,
890150,890150,"Fulham Rd at Swanson Street",, -19.288550, 146.771106,4,http://translink.com.au/stop/890150/gtfs/,0,,
890151,890151,"Fulham Rd at Lonsdale Street",, -19.289495, 146.767433,4,http://translink.com.au/stop/890151/gtfs/,0,,
890152,890152,"Nathan St at Alfred Street",, -19.301099, 146.761360,4,http://translink.com.au/stop/890152/gtfs/,0,,
890153,890153,"Nathan St at Leopold Street",, -19.304498, 146.760976,4,http://translink.com.au/stop/890153/gtfs/,0,,
890154,890154,"Nathan St at Good Shepherd Home (Hail n Ride)",, -19.310771, 146.762772,3,http://translink.com.au/stop/890154/gtfs/,0,,
890155,890155,"Angus Smith Dr at Tennant Street",, -19.314987, 146.761710,6,http://translink.com.au/stop/890155/gtfs/,0,,
890156,890156,"Angus Smith Dr at Riverside Boulevard",, -19.317207, 146.759801,6,http://translink.com.au/stop/890156/gtfs/,0,,
890157,890157,"Buchan Rd near Endeavour Dr",, -19.325174, 146.751943,6,http://translink.com.au/stop/890157/gtfs/,0,,
890158,890158,"Student Union Mall",, -19.327621, 146.756223,6,http://translink.com.au/stop/890158/gtfs/,0,,
890164,890164,"Riverside Blvd at Riverside Shopping Centre",, -19.317124, 146.758213,6,http://translink.com.au/stop/890164/gtfs/,0,,
890165,890165,"Riverside Blvd at Regatta Crescent",, -19.316859, 146.755704,6,http://translink.com.au/stop/890165/gtfs/,0,,
890166,890166,"Riverside Blvd at Community Centre",, -19.316641, 146.752957,6,http://translink.com.au/stop/890166/gtfs/,0,,
890167,890167,"Riverside Blvd at Southern Cross Circuit",, -19.319653, 146.751272,6,http://translink.com.au/stop/890167/gtfs/,0,,
890168,890168,"Riverside Blvd at Creekwood Way",, -19.320841, 146.748844,6,http://translink.com.au/stop/890168/gtfs/,0,,
890169,890169,"Riverside Blvd at Siris Place",, -19.319778, 146.746926,6,http://translink.com.au/stop/890169/gtfs/,0,,
890170,890170,"Riverside Blvd at White Beech Court",, -19.318922, 146.743184,6,http://translink.com.au/stop/890170/gtfs/,0,,
890171,890171,"Riverside Blvd near Boxwood St",, -19.318808, 146.738410,6,http://translink.com.au/stop/890171/gtfs/,0,,
890172,890172,"Riverside Blvd at Freshwater Drive",, -19.318827, 146.738216,6,http://translink.com.au/stop/890172/gtfs/,0,,
890173,890173,"Rivergreen Cct near Riverside Blvd",, -19.317543, 146.741330,6,http://translink.com.au/stop/890173/gtfs/,0,,
890174,890174,"Riverside Blvd at White Beach Court",, -19.319053, 146.744054,6,http://translink.com.au/stop/890174/gtfs/,0,,
890175,890175,"Riverside Blvd at Siris Place",, -19.319570, 146.746905,6,http://translink.com.au/stop/890175/gtfs/,0,,
890176,890176,"Riverside Blvd at Creekwood Way",, -19.320727, 146.748946,6,http://translink.com.au/stop/890176/gtfs/,0,,
890177,890177,"Riverside Blvd at Southern Cross Circuit",, -19.318328, 146.751509,6,http://translink.com.au/stop/890177/gtfs/,0,,
890178,890178,"Riverside Blvd at Community Centre",, -19.316531, 146.753071,6,http://translink.com.au/stop/890178/gtfs/,0,,
890179,890179,"Riverside Blvd at Regatta Crescent",, -19.316732, 146.755691,6,http://translink.com.au/stop/890179/gtfs/,0,,
890180,890180,"Riverside Blvd at Riverside Shopping Centre",, -19.316979, 146.758335,6,http://translink.com.au/stop/890180/gtfs/,0,,
890181,890181,"Willows Shopping Centre",, -19.314506, 146.727562,7,http://translink.com.au/stop/890181/gtfs/,0,,
890182,890182,"48 Thuringowa Drive near Carthew St",, -19.312264, 146.729712,7,http://translink.com.au/stop/890182/gtfs/,0,,
890183,890183,"Thuringowa Dr at Hinchinbrook Drive",, -19.308490, 146.732170,7,http://translink.com.au/stop/890183/gtfs/,0,,
890184,890184,"Thuringowa Dr at Charles Street",, -19.304795, 146.734142,7,http://translink.com.au/stop/890184/gtfs/,0,,
890185,890185,"Thuringowa Dr near Burnda St",, -19.298816, 146.736116,4,http://translink.com.au/stop/890185/gtfs/,0,,
890186,890186,"Hugh St at Garbutt Shopping Centre",, -19.265645, 146.783224,2,http://translink.com.au/stop/890186/gtfs/,0,,
890187,890187,"Shelley Street near The Esplanade",, -19.199911, 146.773721,5,http://translink.com.au/stop/890187/gtfs/,0,,
890188,890188,"Heatleys Pde at Rowes Bay",, -19.241230, 146.791204,2,http://translink.com.au/stop/890188/gtfs/,0,,
890189,890189,"Primrose St at Marshall Street",, -19.244190, 146.798058,2,http://translink.com.au/stop/890189/gtfs/,0,,
890190,890190,"Primrose St at Rose Street",, -19.243580, 146.801331,1,http://translink.com.au/stop/890190/gtfs/,0,,
890191,890191,"Primrose St at Rose Street",, -19.243716, 146.801399,1,http://translink.com.au/stop/890191/gtfs/,0,,
890192,890192,"Eyre St at Stuart Street",, -19.246526, 146.808256,1,http://translink.com.au/stop/890192/gtfs/,0,,
890193,890193,"Flinders St near Denham Lane (Hail n Ride)",, -19.257883, 146.818722,20,http://translink.com.au/stop/890193/gtfs/,0,,
890194,890194,"Flinders St at Wickham Street",, -19.257063, 146.821312,20,http://translink.com.au/stop/890194/gtfs/,0,,
890195,890195,"The Strand at Strand Waterpark",, -19.253095, 146.818469,20,http://translink.com.au/stop/890195/gtfs/,0,,
890196,890196,"The Strand at Gregory St",, -19.250745, 146.815620,20,http://translink.com.au/stop/890196/gtfs/,0,,
890203,890203,"The Strand at Gregory St",, -19.250203, 146.815478,20,http://translink.com.au/stop/890203/gtfs/,0,,
890206,890206,"Breakwater Terminal",, -19.254917, 146.825790,20,http://translink.com.au/stop/890206/gtfs/,0,,
890207,890207,"Flinders St at Reef HQ",, -19.257299, 146.822649,20,http://translink.com.au/stop/890207/gtfs/,0,,
890208,890208,"Flinders St at Denham Street",, -19.257908, 146.819261,20,http://translink.com.au/stop/890208/gtfs/,0,,
890209,890209,"Dean Street near Palmer St",, -19.260990, 146.819470,20,http://translink.com.au/stop/890209/gtfs/,0,,
890215,890215,"Palmer Street near Dibbs St",, -19.260276, 146.820806,20,http://translink.com.au/stop/890215/gtfs/,0,,
890217,890217,"Walker Street near Stanley St",, -19.259259, 146.814284,20,http://translink.com.au/stop/890217/gtfs/,0,,
890218,890218,"Flinders St nr Stanley St (Hail n Ride)",, -19.262000, 146.815164,20,http://translink.com.au/stop/890218/gtfs/,0,,
890219,890219,"Flinders St at Blackwood Street",, -19.263337, 146.814006,20,http://translink.com.au/stop/890219/gtfs/,0,,
890220,890220,"Flinders St at Fletcher Street",, -19.266296, 146.810873,1,http://translink.com.au/stop/890220/gtfs/,0,,
890221,890221,"Flinders St at Knapp Street",, -19.267666, 146.808615,1,http://translink.com.au/stop/890221/gtfs/,0,,
890222,890222,"Ingham Rd at Church Street",, -19.268394, 146.800949,1,http://translink.com.au/stop/890222/gtfs/,0,,
890223,890223,"Ingham Rd at Echlin Street",, -19.267887, 146.795971,1,http://translink.com.au/stop/890223/gtfs/,0,,
890224,890224,"Palmerston St at Park Street",, -19.281712, 146.789402,2,http://translink.com.au/stop/890224/gtfs/,0,,
890225,890225,"Park St at Gladstone Street",, -19.283181, 146.789047,2,http://translink.com.au/stop/890225/gtfs/,0,,
890226,890226,"Park St at Derby Street",, -19.285237, 146.788784,2,http://translink.com.au/stop/890226/gtfs/,0,,
890227,890227,"Park St at Albury Street",, -19.287197, 146.788574,2,http://translink.com.au/stop/890227/gtfs/,0,,
890228,890228,"Park St at Mater Hospital",, -19.289050, 146.788372,2,http://translink.com.au/stop/890228/gtfs/,0,,
890229,890229,"Fulham Rd at Diprose Street",, -19.289358, 146.786319,2,http://translink.com.au/stop/890229/gtfs/,0,,
890230,890230,"Fulham Rd at Pimlico High School",, -19.289100, 146.784044,2,http://translink.com.au/stop/890230/gtfs/,0,,
890231,890231,"Fulham Rd at TAFE College",, -19.288749, 146.780511,4,http://translink.com.au/stop/890231/gtfs/,0,,
890232,890232,"Fulham Rd at Armit Street",, -19.288455, 146.777575,4,http://translink.com.au/stop/890232/gtfs/,0,,
890233,890233,"Fulham Rd at Parson Street",, -19.288165, 146.774896,4,http://translink.com.au/stop/890233/gtfs/,0,,
890235,890235,"Nathan St at Raynor Street",, -19.295679, 146.761652,4,http://translink.com.au/stop/890235/gtfs/,0,,
890236,890236,"Nathan St at Arunta Street",, -19.293636, 146.761870,4,http://translink.com.au/stop/890236/gtfs/,0,,
890237,890237,"Charles St at Illoura Street",, -19.292872, 146.761228,4,http://translink.com.au/stop/890237/gtfs/,0,,
890238,890238,"Charles Stat Brampton Avenue",, -19.293452, 146.758706,4,http://translink.com.au/stop/890238/gtfs/,0,,
890239,890239,"Charles St at Lindeman Avenue",, -19.294177, 146.755585,4,http://translink.com.au/stop/890239/gtfs/,0,,
890240,890240,"Charles St at Cordelia Avenue",, -19.295045, 146.753669,4,http://translink.com.au/stop/890240/gtfs/,0,,
890241,890241,"Charles St at Fitzroy Street",, -19.296069, 146.752136,4,http://translink.com.au/stop/890241/gtfs/,0,,
890242,890242,"Charles St at Western Lions Park",, -19.297041, 146.750690,4,http://translink.com.au/stop/890242/gtfs/,0,,
890243,890243,"Charles St at Ellimatta Avenue",, -19.299084, 146.749188,4,http://translink.com.au/stop/890243/gtfs/,0,,
890244,890244,"Charles St at Lerida Street",, -19.301507, 146.747737,4,http://translink.com.au/stop/890244/gtfs/,0,,
890245,890245,"Charles St at Tapiolas Avenue",, -19.303778, 146.746381,4,http://translink.com.au/stop/890245/gtfs/,0,,
890246,890246,"Charles St near Sabadell St",, -19.304912, 146.744426,4,http://translink.com.au/stop/890246/gtfs/,0,,
890247,890247,"Charles St at Saderra Street",, -19.304707, 146.742117,4,http://translink.com.au/stop/890247/gtfs/,0,,
890248,890248,"Bamford Lane near Charles St",, -19.303798, 146.740750,4,http://translink.com.au/stop/890248/gtfs/,0,,
890249,890249,"Bamford Lane at Princeton Villas",, -19.301131, 146.741019,4,http://translink.com.au/stop/890249/gtfs/,0,,
890250,890250,"Bamford Lane near McBride St",, -19.295459, 146.742851,4,http://translink.com.au/stop/890250/gtfs/,0,,
890251,890251,"Mill Dr at Mount View Park",, -19.293701, 146.741486,4,http://translink.com.au/stop/890251/gtfs/,0,,
890252,890252,"Thuringowa Dr at Burnda Street",, -19.300360, 146.736119,4,http://translink.com.au/stop/890252/gtfs/,0,,
890253,890253,"Thuringowa Dr at Charles Street",, -19.305406, 146.734168,7,http://translink.com.au/stop/890253/gtfs/,0,,
890254,890254,"Thuringowa Dr at Hinchinbrook Drive",, -19.308699, 146.732292,7,http://translink.com.au/stop/890254/gtfs/,0,,
890255,890255,"49 Thuringowa Dr at Thuringowa Drive",, -19.311888, 146.730200,7,http://translink.com.au/stop/890255/gtfs/,0,,
890256,890256,"Golf Links Dr near Nineteenth Ave",, -19.318219, 146.709160,7,http://translink.com.au/stop/890256/gtfs/,0,,
890257,890257,"Golf Links Dr at Woodlake Park Walkway",, -19.307769, 146.713685,7,http://translink.com.au/stop/890257/gtfs/,0,,
890258,890258,"Golf Links Dr at Sonata Place Walkway",, -19.305530, 146.717371,7,http://translink.com.au/stop/890258/gtfs/,0,,
890259,890259,"Opp 211 Thuringowa Drive near Mill Dr",, -19.293344, 146.737721,4,http://translink.com.au/stop/890259/gtfs/,0,,
890260,890260,"Bamford Lane at McBride Street",, -19.295528, 146.743095,4,http://translink.com.au/stop/890260/gtfs/,0,,
890261,890261,"Bamford Lane at Birrahlee Crescent",, -19.297644, 146.742013,4,http://translink.com.au/stop/890261/gtfs/,0,,
890262,890262,"Bamford Lane at Calalonia Street",, -19.301021, 146.741317,4,http://translink.com.au/stop/890262/gtfs/,0,,
890263,890263,"Bamford Lane at Parkside Plaza",, -19.303472, 146.741070,4,http://translink.com.au/stop/890263/gtfs/,0,,
890264,890264,"Charles St near Saderra Ct",, -19.304569, 146.741899,4,http://translink.com.au/stop/890264/gtfs/,0,,
890265,890265,"Charles St near Sabadell St",, -19.304774, 146.744257,4,http://translink.com.au/stop/890265/gtfs/,0,,
890266,890266,"Charles St at Tapiolas Avenue",, -19.303660, 146.746287,4,http://translink.com.au/stop/890266/gtfs/,0,,
890267,890267,"Charles St at Lerida Street",, -19.301725, 146.747454,4,http://translink.com.au/stop/890267/gtfs/,0,,
890268,890268,"Charles St at Ellimatta Avenue",, -19.298975, 146.749104,4,http://translink.com.au/stop/890268/gtfs/,0,,
890269,890269,"Charles St at Western Lions Park",, -19.296867, 146.750729,4,http://translink.com.au/stop/890269/gtfs/,0,,
890270,890270,"Charles St at Fitzroy Street",, -19.295842, 146.752271,4,http://translink.com.au/stop/890270/gtfs/,0,,
890271,890271,"Charles St at Cordelia Avenue",, -19.294484, 146.754290,4,http://translink.com.au/stop/890271/gtfs/,0,,
890272,890272,"Charles St at Lindeman Avenue",, -19.293852, 146.756461,4,http://translink.com.au/stop/890272/gtfs/,0,,
890273,890273,"Charles St at Brampton Avenue",, -19.293082, 146.759751,4,http://translink.com.au/stop/890273/gtfs/,0,,
890275,890275,"Fulham Rd at Parson Street",, -19.288050, 146.775529,4,http://translink.com.au/stop/890275/gtfs/,0,,
890276,890276,"Fulham Rd at Armit Street",, -19.288232, 146.777288,4,http://translink.com.au/stop/890276/gtfs/,0,,
890277,890277,"Fulham Rd at TAFE College",, -19.288579, 146.780745,4,http://translink.com.au/stop/890277/gtfs/,0,,
890278,890278,"Fulham Rd at Pimlico High School",, -19.288749, 146.782421,4,http://translink.com.au/stop/890278/gtfs/,0,,
890279,890279,"Park St at Mater Hospital",, -19.289118, 146.788248,2,http://translink.com.au/stop/890279/gtfs/,0,,
890280,890280,"Park St at Derby Street",, -19.284918, 146.788735,2,http://translink.com.au/stop/890280/gtfs/,0,,
890281,890281,"Ingham Rd at Echlin Street",, -19.267787, 146.796460,1,http://translink.com.au/stop/890281/gtfs/,0,,
890282,890282,"Ingham Rd at Church Street",, -19.268243, 146.800815,1,http://translink.com.au/stop/890282/gtfs/,0,,
890283,890283,"Walker St at Walker Street",, -19.259210, 146.814024,20,http://translink.com.au/stop/890283/gtfs/,0,,
890285,890285,"Railway Avenue near Seventh St",, -19.272456, 146.815485,1,http://translink.com.au/stop/890285/gtfs/,0,,
890286,890286,"Queens Rd at Queens Road Rail Crossing",, -19.278133, 146.814757,1,http://translink.com.au/stop/890286/gtfs/,0,,
890287,890287,"Queens Rd at Third Avenue",, -19.278515, 146.812799,1,http://translink.com.au/stop/890287/gtfs/,0,,
890288,890288,"Queens Rd at Ahearne St",, -19.280847, 146.807924,2,http://translink.com.au/stop/890288/gtfs/,0,,
890289,890289,"Queens Rd at Bicentennial Park",, -19.282911, 146.805474,2,http://translink.com.au/stop/890289/gtfs/,0,,
890290,890290,"Queens Rd at Clayton Street",, -19.285148, 146.802873,2,http://translink.com.au/stop/890290/gtfs/,0,,
890291,890291,"Queens Rd at Halloran Street",, -19.289217, 146.798097,2,http://translink.com.au/stop/890291/gtfs/,0,,
890292,890292,"Ross River Rd at Rising Sun",, -19.292023, 146.795067,2,http://translink.com.au/stop/890292/gtfs/,0,,
890293,890293,"Bowen Rd at Sweet Street",, -19.295551, 146.797302,2,http://translink.com.au/stop/890293/gtfs/,0,,
890294,890294,"Bowen Rd at Benson Street",, -19.297398, 146.798340,2,http://translink.com.au/stop/890294/gtfs/,0,,
890295,890295,"Bowen Rd at Touch Street",, -19.300418, 146.800100,2,http://translink.com.au/stop/890295/gtfs/,0,,
890296,890296,"Bowen Rd at Viles Street",, -19.302513, 146.801302,2,http://translink.com.au/stop/890296/gtfs/,0,,
890297,890297,"Stuart Dr at Watt Street",, -19.318502, 146.814180,3,http://translink.com.au/stop/890297/gtfs/,0,,
890298,890298,"Stuart Dr at Marconi Street",, -19.323555, 146.818471,3,http://translink.com.au/stop/890298/gtfs/,0,,
890299,890299,"Stuart Dr at Royal Street",, -19.326651, 146.821167,3,http://translink.com.au/stop/890299/gtfs/,0,,
890300,890300,"Stuart Dr at Culgoa Street",, -19.328535, 146.822781,3,http://translink.com.au/stop/890300/gtfs/,0,,
890301,890301,"Stuart Dr at Stuart Hotel",, -19.331479, 146.825296,3,http://translink.com.au/stop/890301/gtfs/,0,,
890302,890302,"Stuart Dr at Dunk Street",, -19.334114, 146.827642,3,http://translink.com.au/stop/890302/gtfs/,0,,
890303,890303,"Stuart Dr near Lowe St (Hail n Ride)",, -19.341031, 146.832859,3,http://translink.com.au/stop/890303/gtfs/,0,,
890304,890304,"Stuart Dr near Roe St (Hail n Ride)",, -19.344462, 146.834190,3,http://translink.com.au/stop/890304/gtfs/,0,,
890305,890305,"Stuart Dr near Gully St (Hail n Ride)",, -19.346196, 146.834926,3,http://translink.com.au/stop/890305/gtfs/,0,,
890306,890306,"Southwood Rd at Hunter Street",, -19.347527, 146.850212,3,http://translink.com.au/stop/890306/gtfs/,0,,
890307,890307,"Southwood Rd at Pretoria Street",, -19.347254, 146.847291,3,http://translink.com.au/stop/890307/gtfs/,0,,
890308,890308,"Southwood Rd at Mafeking Street",, -19.346767, 146.842432,3,http://translink.com.au/stop/890308/gtfs/,0,,
890309,890309,"Stuart Dr near Gully St (Hail n Ride)",, -19.346279, 146.834608,3,http://translink.com.au/stop/890309/gtfs/,0,,
890310,890310,"Stuart Dr near Roe St (Hail n Ride)",, -19.344581, 146.834091,3,http://translink.com.au/stop/890310/gtfs/,0,,
890311,890311,"Stuart Drive near Lowe St (Hail n Ride)",, -19.341038, 146.832685,3,http://translink.com.au/stop/890311/gtfs/,0,,
890312,890312,"Stuart Dr at Stuart Hotel",, -19.330997, 146.824510,3,http://translink.com.au/stop/890312/gtfs/,0,,
890313,890313,"Stuart Dr at Culgoa Street",, -19.328257, 146.822147,3,http://translink.com.au/stop/890313/gtfs/,0,,
890314,890314,"Stuart Dr at Royal Street",, -19.326565, 146.820793,3,http://translink.com.au/stop/890314/gtfs/,0,,
890315,890315,"Wright Street near Stuart Dr",, -19.325193, 146.819113,3,http://translink.com.au/stop/890315/gtfs/,0,,
890317,890317,"Macarthur Drv nr William Angliss Dr (Hail n Ride)",, -19.316732, 146.792579,3,http://translink.com.au/stop/890317/gtfs/,0,,
890318,890318,"Annandale Shopping Centre",, -19.316645, 146.791080,3,http://translink.com.au/stop/890318/gtfs/,0,,
890319,890319,"Macarthur Dr at Wave Hill Drive",, -19.314548, 146.790242,3,http://translink.com.au/stop/890319/gtfs/,0,,
890320,890320,"Annandale Dr at Indigo Crescent",, -19.311140, 146.783865,3,http://translink.com.au/stop/890320/gtfs/,0,,
890321,890321,"Annandale Dr at Boronia Drive",, -19.308306, 146.783468,3,http://translink.com.au/stop/890321/gtfs/,0,,
890322,890322,"Cypress Dr at Annandale Drive",, -19.307743, 146.782545,3,http://translink.com.au/stop/890322/gtfs/,0,,
890323,890323,"Cypress Dr at Jonquil Crescent",, -19.309802, 146.779881,3,http://translink.com.au/stop/890323/gtfs/,0,,
890324,890324,"Cypress Dr at Larkspur Crescent",, -19.311642, 146.778314,3,http://translink.com.au/stop/890324/gtfs/,0,,
890325,890325,"Cypress Dr at River Park Drive",, -19.313183, 146.776213,3,http://translink.com.au/stop/890325/gtfs/,0,,
890326,890326,"Yolanda Dr at Cypress Drive",, -19.314234, 146.774745,3,http://translink.com.au/stop/890326/gtfs/,0,,
890327,890327,"Yolanda Dr at Yolanda Drive Shops",, -19.314195, 146.772345,3,http://translink.com.au/stop/890327/gtfs/,0,,
890328,890328,"Yolanda Dr at Fardon Street",, -19.314918, 146.768391,3,http://translink.com.au/stop/890328/gtfs/,0,,
890329,890329,"Yolanda Dr at Marabou Drive",, -19.316175, 146.765902,3,http://translink.com.au/stop/890329/gtfs/,0,,
890330,890330,"Palmerston St at Ronan Street",, -19.286321, 146.764044,4,http://translink.com.au/stop/890330/gtfs/,0,,
890331,890331,"Palmerston St at Cambridge Street",, -19.279562, 146.769399,4,http://translink.com.au/stop/890331/gtfs/,0,,
890332,890332,"Palmerston St at Mcdougall Street",, -19.280592, 146.779526,2,http://translink.com.au/stop/890332/gtfs/,0,,
890333,890333,"Palmerston St at Gill Park",, -19.281042, 146.783857,2,http://translink.com.au/stop/890333/gtfs/,0,,
890334,890334,"Palmerston St at Pegnall Street",, -19.281448, 146.787754,2,http://translink.com.au/stop/890334/gtfs/,0,,
890335,890335,"Bayswater Rd at Fairley Street",, -19.276687, 146.794566,2,http://translink.com.au/stop/890335/gtfs/,0,,
890336,890336,"Bayswater Rd at Sussex Street",, -19.276961, 146.796985,2,http://translink.com.au/stop/890336/gtfs/,0,,
890337,890337,"Bayswater Rd at St Margaret Mary's College",, -19.277160, 146.798824,2,http://translink.com.au/stop/890337/gtfs/,0,,
890338,890338,"Charters Towers Rd at Oxford Street",, -19.276130, 146.800618,1,http://translink.com.au/stop/890338/gtfs/,0,,
890339,890339,"Charters Towers Rd at Somer Street",, -19.274854, 146.801526,1,http://translink.com.au/stop/890339/gtfs/,0,,
890340,890340,"Charters Towers Rd at Boundary Street",, -19.273035, 146.803437,1,http://translink.com.au/stop/890340/gtfs/,0,,
890341,890341,"Flinders St at Railway Station",, -19.268508, 146.806750,1,http://translink.com.au/stop/890341/gtfs/,0,,
890342,890342,"Flinders St at Knapp Street",, -19.267434, 146.808542,1,http://translink.com.au/stop/890342/gtfs/,0,,
890343,890343,"Flinders St at Fletcher Street",, -19.266397, 146.810268,1,http://translink.com.au/stop/890343/gtfs/,0,,
890344,890344,"Flinders St at Blackwood Street",, -19.263362, 146.813689,20,http://translink.com.au/stop/890344/gtfs/,0,,
890346,890346,"Flinders St at Railway Station",, -19.268714, 146.806824,1,http://translink.com.au/stop/890346/gtfs/,0,,
890347,890347,"Charters Towers Rd at Boundary Street",, -19.273059, 146.803838,1,http://translink.com.au/stop/890347/gtfs/,0,,
890348,890348,"Charters Towers Rd at Somer Street",, -19.275145, 146.801670,1,http://translink.com.au/stop/890348/gtfs/,0,,
890349,890349,"Bayswater Rd at St Margaret Mary's College",, -19.277312, 146.798758,2,http://translink.com.au/stop/890349/gtfs/,0,,
890350,890350,"Bayswater Rd at Sussex Street",, -19.277030, 146.795740,2,http://translink.com.au/stop/890350/gtfs/,0,,
890351,890351,"Palmerston St at Gill Park",, -19.281171, 146.784270,2,http://translink.com.au/stop/890351/gtfs/,0,,
890352,890352,"Palmerston St at McDougall Street",, -19.280634, 146.778913,2,http://translink.com.au/stop/890352/gtfs/,0,,
890354,890354,"Palmerston St at Cambridge Street",, -19.279736, 146.768307,4,http://translink.com.au/stop/890354/gtfs/,0,,
890355,890355,"Palmerston St at Ronan Street",, -19.286432, 146.764197,4,http://translink.com.au/stop/890355/gtfs/,0,,
890356,890356,"Yolanda Dr at Marabou Drive",, -19.316209, 146.765473,3,http://translink.com.au/stop/890356/gtfs/,0,,
890357,890357,"Yolanda Dr at Fardon Street",, -19.314548, 146.769060,3,http://translink.com.au/stop/890357/gtfs/,0,,
890358,890358,"Yolanda Dr at Yolanda Drive Shops",, -19.314039, 146.772533,3,http://translink.com.au/stop/890358/gtfs/,0,,
890359,890359,"Yolanda Dr at Cypress Drive",, -19.314085, 146.774513,3,http://translink.com.au/stop/890359/gtfs/,0,,
890360,890360,"Cypress Dr at River Park Drive",, -19.312905, 146.777057,3,http://translink.com.au/stop/890360/gtfs/,0,,
890361,890361,"Cypress Dr at Larkspur Crescent",, -19.310997, 146.778516,3,http://translink.com.au/stop/890361/gtfs/,0,,
890362,890362,"Cypress Dr at Jonquil Crescent",, -19.309347, 146.780266,3,http://translink.com.au/stop/890362/gtfs/,0,,
890363,890363,"Cypress Dr at Annandale Drive",, -19.307761, 146.782202,3,http://translink.com.au/stop/890363/gtfs/,0,,
890364,890364,"Annandale Dr at Boronia Drive",, -19.308497, 146.783631,3,http://translink.com.au/stop/890364/gtfs/,0,,
890365,890365,"Allen St at Tully Street",, -19.263964, 146.826672,1,http://translink.com.au/stop/890365/gtfs/,0,,
890366,890366,"Allen St at Nelson Street",, -19.265487, 146.830004,1,http://translink.com.au/stop/890366/gtfs/,0,,
890367,890367,"Hubert St at Boundary Street",, -19.268222, 146.829428,1,http://translink.com.au/stop/890367/gtfs/,0,,
890368,890368,"Boundary St at Bell Street",, -19.269160, 146.826389,1,http://translink.com.au/stop/890368/gtfs/,0,,
890369,890369,"Boundary St at Twelfth Avenue",, -19.270325, 146.820566,1,http://translink.com.au/stop/890369/gtfs/,0,,
890370,890370,"Boundary St at Tenth Avenue",, -19.270855, 146.817778,1,http://translink.com.au/stop/890370/gtfs/,0,,
890372,890372,"Putt Street near Eleventh Ave",, -19.277819, 146.818131,1,http://translink.com.au/stop/890372/gtfs/,0,,
890373,890373,"Robertson St near Doorey St (Hail and Ride)",, -19.279735, 146.821558,1,http://translink.com.au/stop/890373/gtfs/,0,,
890374,890374,"Doorey St near Twelfth Ave",, -19.280026, 146.819927,1,http://translink.com.au/stop/890374/gtfs/,0,,
890376,890376,"Shannon Street near Abbott St",, -19.294051, 146.817054,3,http://translink.com.au/stop/890376/gtfs/,0,,
890378,890378,"McAlister Street near O Donnell St",, -19.298081, 146.820223,3,http://translink.com.au/stop/890378/gtfs/,0,,
890379,890379,"McPherson Street near Abbott St",, -19.304195, 146.820260,3,http://translink.com.au/stop/890379/gtfs/,0,,
890381,890381,"Edison St at Stephenson Street",, -19.327020, 146.808747,3,http://translink.com.au/stop/890381/gtfs/,0,,
890382,890382,"Edison St at Florey Street",, -19.328036, 146.808617,3,http://translink.com.au/stop/890382/gtfs/,0,,
890383,890383,"Wright St at Kepler Street",, -19.328379, 146.811209,3,http://translink.com.au/stop/890383/gtfs/,0,,
890384,890384,"Wright St at Haldane Street",, -19.327592, 146.813980,3,http://translink.com.au/stop/890384/gtfs/,0,,
890385,890385,"Wright St at Faraday Street",, -19.327345, 146.816116,3,http://translink.com.au/stop/890385/gtfs/,0,,
890386,890386,"Wright Street near Stuart Dr",, -19.324997, 146.819192,3,http://translink.com.au/stop/890386/gtfs/,0,,
890387,890387,"Stuart Dr at Marconi Street",, -19.323742, 146.818263,3,http://translink.com.au/stop/890387/gtfs/,0,,
890388,890388,"Stuart Dr at Edison Street",, -19.320706, 146.815786,3,http://translink.com.au/stop/890388/gtfs/,0,,
890389,890389,"Stuart Dr at Watt Street",, -19.318915, 146.814227,3,http://translink.com.au/stop/890389/gtfs/,0,,
890390,890390,"William Angliss Dr at Murray Sporting Complex",, -19.313031, 146.800851,3,http://translink.com.au/stop/890390/gtfs/,0,,
890391,890391,"Macarthur Drv at Townsville Grammar (Hail n Ride)",, -19.316724, 146.792771,3,http://translink.com.au/stop/890391/gtfs/,0,,
890392,890392,"Mill Dr at Heatley State School",, -19.293332, 146.747381,4,http://translink.com.au/stop/890392/gtfs/,0,,
890393,890393,"Mill Drive near Joyce St",, -19.293847, 146.744347,4,http://translink.com.au/stop/890393/gtfs/,0,,
890394,890394,"Greenwood Dr at Greenwood Park",, -19.289693, 146.736648,4,http://translink.com.au/stop/890394/gtfs/,0,,
890395,890395,"Greenwood Dr at Wheeler Circuit Park",, -19.295399, 146.734010,4,http://translink.com.au/stop/890395/gtfs/,0,,
890396,890396,"Burnda St near Belmont Park Ave",, -19.300574, 146.727888,7,http://translink.com.au/stop/890396/gtfs/,0,,
890397,890397,"107 Kern Brothers Dr near Sandstone Dr",, -19.308780, 146.723453,7,http://translink.com.au/stop/890397/gtfs/,0,,
890398,890398,"Kern Brothers Dr at Wellesley Drive",, -19.312263, 146.722890,7,http://translink.com.au/stop/890398/gtfs/,0,,
890399,890399,"Kern Brothers Dr at Wellesley Drive",, -19.312448, 146.722747,7,http://translink.com.au/stop/890399/gtfs/,0,,
890400,890400,"Burnda St near Tottenham Ct",, -19.300010, 146.728424,7,http://translink.com.au/stop/890400/gtfs/,0,,
890401,890401,"Greenwood Dr at Greenwood Park",, -19.289779, 146.738941,4,http://translink.com.au/stop/890401/gtfs/,0,,
890402,890402,"Mill Drive near Joyce St",, -19.293706, 146.744471,4,http://translink.com.au/stop/890402/gtfs/,0,,
890403,890403,"Annandale Dr at Indigo Crescent",, -19.311135, 146.784001,3,http://translink.com.au/stop/890403/gtfs/,0,,
890404,890404,"Macarthur Dr at Wave Hill Drive",, -19.314584, 146.790855,3,http://translink.com.au/stop/890404/gtfs/,0,,
890405,890405,"William Angliss Dr at Murray Sporting Complex",, -19.312953, 146.801121,3,http://translink.com.au/stop/890405/gtfs/,0,,
890406,890406,"Oonoonba Rd at Oonoonba State School",, -19.302770, 146.813863,3,http://translink.com.au/stop/890406/gtfs/,0,,
890407,890407,"McPherson Street near Ireland St",, -19.304075, 146.820215,3,http://translink.com.au/stop/890407/gtfs/,0,,
890408,890408,"Shannon Street near Abbott Street",, -19.294168, 146.817074,3,http://translink.com.au/stop/890408/gtfs/,0,,
890410,890410,"Doorey St near Thirteenth Ave",, -19.279904, 146.820169,1,http://translink.com.au/stop/890410/gtfs/,0,,
890411,890411,"Robertson St near Doorey St (Hail and Ride)",, -19.279651, 146.821468,1,http://translink.com.au/stop/890411/gtfs/,0,,
890412,890412,"Putt St at Tenth Avenue",, -19.277944, 146.818079,1,http://translink.com.au/stop/890412/gtfs/,0,,
890414,890414,"Boundary St at Twelfth Avenue",, -19.270088, 146.820457,1,http://translink.com.au/stop/890414/gtfs/,0,,
890415,890415,"Boundary St at Bell Street",, -19.268895, 146.826724,1,http://translink.com.au/stop/890415/gtfs/,0,,
890416,890416,"Hubert St near Boundary St",, -19.267996, 146.829321,1,http://translink.com.au/stop/890416/gtfs/,0,,
890417,890417,"Allen St at Nelson Street",, -19.265233, 146.829012,1,http://translink.com.au/stop/890417/gtfs/,0,,
890418,890418,"Allen St at Tully Street",, -19.263673, 146.825531,1,http://translink.com.au/stop/890418/gtfs/,0,,
890419,890419,"Allen St at Davidson Street",, -19.262689, 146.823403,1,http://translink.com.au/stop/890419/gtfs/,0,,
890420,890420,"Stuart Dr at Kokoda Street",, -19.306740, 146.803322,3,http://translink.com.au/stop/890420/gtfs/,0,,
890421,890421,"Bowen Rd at Viles Street",, -19.301837, 146.800598,2,http://translink.com.au/stop/890421/gtfs/,0,,
890422,890422,"Bowen Rd at Touch Street",, -19.300523, 146.799832,2,http://translink.com.au/stop/890422/gtfs/,0,,
890423,890423,"Bowen Rd at Touch Street",, -19.297518, 146.798095,2,http://translink.com.au/stop/890423/gtfs/,0,,
890424,890424,"Bowen Rd at Sweet Street",, -19.295972, 146.797210,2,http://translink.com.au/stop/890424/gtfs/,0,,
890425,890425,"Bowen Rd at Rising Sun",, -19.292630, 146.795932,2,http://translink.com.au/stop/890425/gtfs/,0,,
890426,890426,"Queens Rd at Halloran Street",, -19.289064, 146.798040,2,http://translink.com.au/stop/890426/gtfs/,0,,
890427,890427,"Queens Rd at Clayton Street",, -19.284952, 146.802845,2,http://translink.com.au/stop/890427/gtfs/,0,,
890428,890428,"Queens Rd at Ahearne Street",, -19.281255, 146.807169,2,http://translink.com.au/stop/890428/gtfs/,0,,
890429,890429,"Queens Rd at Third Avenue",, -19.278393, 146.812503,1,http://translink.com.au/stop/890429/gtfs/,0,,
890430,890430,"Queens Rd at Queens Road Rail Crossing",, -19.277944, 146.814739,1,http://translink.com.au/stop/890430/gtfs/,0,,
890431,890431,"Charters Towers Rd at Hermit Park Shopping Centre",, -19.277746, 146.800284,1,http://translink.com.au/stop/890431/gtfs/,0,,
890432,890432,"Charters Towers Rd at Bayswater Terrace",, -19.281476, 146.798763,2,http://translink.com.au/stop/890432/gtfs/,0,,
890433,890433,"Charters Towers Rd at Soule Street",, -19.283844, 146.797791,2,http://translink.com.au/stop/890433/gtfs/,0,,
890434,890434,"Charters Towers Rd at Townsend Street",, -19.286210, 146.797227,2,http://translink.com.au/stop/890434/gtfs/,0,,
890435,890435,"Charters Towers Rd at Jameson Street",, -19.288601, 146.796865,2,http://translink.com.au/stop/890435/gtfs/,0,,
890436,890436,"Ross River Rd at Mabin Street",, -19.293683, 146.792610,2,http://translink.com.au/stop/890436/gtfs/,0,,
890437,890437,"Ross River Rd at China Street",, -19.294265, 146.791165,2,http://translink.com.au/stop/890437/gtfs/,0,,
890438,890438,"Ross River Rd at Mundingburra State School",, -19.294873, 146.789746,4,http://translink.com.au/stop/890438/gtfs/,0,,
890439,890439,"Ross River Rd at Briarfield Street",, -19.295288, 146.786998,4,http://translink.com.au/stop/890439/gtfs/,0,,
890440,890440,"Ross River Rd at Mango Avenue",, -19.295286, 146.783746,4,http://translink.com.au/stop/890440/gtfs/,0,,
890441,890441,"Ross River Rd at Gulliver Street",, -19.295489, 146.780708,4,http://translink.com.au/stop/890441/gtfs/,0,,
890442,890442,"Ross River Rd at Cathedral School",, -19.296002, 146.778264,4,http://translink.com.au/stop/890442/gtfs/,0,,
890443,890443,"Ross River Rd at Crete Street",, -19.296774, 146.773936,4,http://translink.com.au/stop/890443/gtfs/,0,,
890444,890444,"Ross River Rd at Charlotte Street",, -19.296402, 146.770645,4,http://translink.com.au/stop/890444/gtfs/,0,,
890446,890446,"Ross River Rd at Cranbrae Village",, -19.299014, 146.758517,4,http://translink.com.au/stop/890446/gtfs/,0,,
890447,890447,"Ross River Rd at Ignatius Park College",, -19.300178, 146.756131,4,http://translink.com.au/stop/890447/gtfs/,0,,
890448,890448,"Ross River Rd at Killara Street",, -19.303459, 146.753276,4,http://translink.com.au/stop/890448/gtfs/,0,,
890449,890449,"Ross River Rd at Alice Street",, -19.307418, 146.750901,4,http://translink.com.au/stop/890449/gtfs/,0,,
890450,890450,"Ross River Rd at Louise Street",, -19.310836, 146.747290,4,http://translink.com.au/stop/890450/gtfs/,0,,
890451,890451,"Ross River Rd at Forest Avenue",, -19.313355, 146.742988,4,http://translink.com.au/stop/890451/gtfs/,0,,
890452,890452,"Malbon Rd at District Grand Lodge",, -19.307436, 146.738167,4,http://translink.com.au/stop/890452/gtfs/,0,,
890453,890453,"Hudson St at Kirwan High",, -19.309108, 146.734336,7,http://translink.com.au/stop/890453/gtfs/,0,,
890455,890455,"High Range Dr at Cannon Park Cinemas",, -19.320247, 146.724430,7,http://translink.com.au/stop/890455/gtfs/,0,,
890456,890456,"Pioneer Dr at Sunland Plaza",, -19.319851, 146.726979,7,http://translink.com.au/stop/890456/gtfs/,0,,
890457,890457,"Riverway Dr near Gregory St",, -19.323480, 146.727683,7,http://translink.com.au/stop/890457/gtfs/,0,,
890458,890458,"Gouldian Ave near Mallee St",, -19.332151, 146.724686,7,http://translink.com.au/stop/890458/gtfs/,0,,
890459,890459,"Gouldian Ave at Bellbird Street",, -19.332135, 146.721169,7,http://translink.com.au/stop/890459/gtfs/,0,,
890460,890460,"Gouldian Ave near Nightingale Ct",, -19.332084, 146.716815,7,http://translink.com.au/stop/890460/gtfs/,0,,
890461,890461,"Gouldian Ave near Beck Dr",, -19.331540, 146.715106,7,http://translink.com.au/stop/890461/gtfs/,0,,
890462,890462,"Gouldian Ave near Bellbird St",, -19.331979, 146.721075,7,http://translink.com.au/stop/890462/gtfs/,0,,
890463,890463,"Jabiru Ave near Falcon Cres",, -19.334150, 146.723249,7,http://translink.com.au/stop/890463/gtfs/,0,,
890464,890464,"Jabiru Ave near Falcon Cres",, -19.334134, 146.720306,7,http://translink.com.au/stop/890464/gtfs/,0,,
890465,890465,"South Vickers Rd at Thuringowa High",, -19.336739, 146.719419,7,http://translink.com.au/stop/890465/gtfs/,0,,
890466,890466,"Gollogly Lane near South Vickers Rd",, -19.339788, 146.719675,7,http://translink.com.au/stop/890466/gtfs/,0,,
890467,890467,"Gollogy Lane near Mallee St",, -19.340170, 146.723888,7,http://translink.com.au/stop/890467/gtfs/,0,,
890468,890468,"Gollogy Lane near Pinnacle Dr",, -19.340331, 146.725739,7,http://translink.com.au/stop/890468/gtfs/,0,,
890469,890469,"Opp 1039 Riverway Dr near Dollview Ave",, -19.346510, 146.729102,7,http://translink.com.au/stop/890469/gtfs/,0,,
890470,890470,"Riverway Dr near Santal Dr",, -19.353308, 146.732188,7,http://translink.com.au/stop/890470/gtfs/,0,,
890471,890471,"Riverway Dr at Upper Ross Shops",, -19.362575, 146.731904,7,http://translink.com.au/stop/890471/gtfs/,0,,
890472,890472,"Riverway Dr near Mac Ct",, -19.367731, 146.731625,8,http://translink.com.au/stop/890472/gtfs/,0,,
890473,890473,"Riverway Dr near Buunong Ave",, -19.371100, 146.730605,8,http://translink.com.au/stop/890473/gtfs/,0,,
890474,890474,"Riverway Dr near Bassano Way",, -19.374548, 146.730342,8,http://translink.com.au/stop/890474/gtfs/,0,,
890475,890475,"Riverway Dr near Yut Fay Ave",, -19.376581, 146.730356,8,http://translink.com.au/stop/890475/gtfs/,0,,
890476,890476,"Riverway Dr near Hammond Way",, -19.380965, 146.730594,8,http://translink.com.au/stop/890476/gtfs/,0,,
890477,890477,"Riverway Dr near Clint St",, -19.384674, 146.730501,8,http://translink.com.au/stop/890477/gtfs/,0,,
890478,890478,"Riverway Dr near Peter St",, -19.389129, 146.730087,8,http://translink.com.au/stop/890478/gtfs/,0,,
890479,890479,"Riverway Dr near Dunlop St",, -19.393504, 146.729404,8,http://translink.com.au/stop/890479/gtfs/,0,,
890489,890489,"Riverway Drive near Dunlop St",, -19.393389, 146.729177,8,http://translink.com.au/stop/890489/gtfs/,0,,
890490,890490,"Riverway Dr near Yvette St",, -19.388207, 146.729924,8,http://translink.com.au/stop/890490/gtfs/,0,,
890491,890491,"Riverway Dr near Jennifer St",, -19.386046, 146.730121,8,http://translink.com.au/stop/890491/gtfs/,0,,
890492,890492,"Riverway Dr near Clint St",, -19.384661, 146.730228,8,http://translink.com.au/stop/890492/gtfs/,0,,
890493,890493,"Riverway Dr near Hammond Way",, -19.379787, 146.730243,8,http://translink.com.au/stop/890493/gtfs/,0,,
890494,890494,"Riverway Dr near Yut Fay Ave",, -19.376837, 146.730160,8,http://translink.com.au/stop/890494/gtfs/,0,,
890495,890495,"Riverway Dr near Bassano Way",, -19.373438, 146.730126,8,http://translink.com.au/stop/890495/gtfs/,0,,
890496,890496,"Riverway Dr near Rosewood Ave",, -19.370798, 146.730437,8,http://translink.com.au/stop/890496/gtfs/,0,,
890497,890497,"Riverway Dr near Allambie Lane",, -19.364809, 146.731734,7,http://translink.com.au/stop/890497/gtfs/,0,,
890498,890498,"Riverway Dr at Upper Ross Hotel",, -19.361877, 146.731740,7,http://translink.com.au/stop/890498/gtfs/,0,,
890547,890547,"Ingham Rd near Mather St",, -19.262561, 146.748297,4,http://translink.com.au/stop/890547/gtfs/,0,,
890548,890548,"Ingham Rd at Coconut Glen Van Village",, -19.262151, 146.713463,4,http://translink.com.au/stop/890548/gtfs/,0,,
890549,890549,"Bradford St at Innes Estate Park",, -19.252853, 146.687716,9,http://translink.com.au/stop/890549/gtfs/,0,,
890550,890550,"Bruce Hwy at Woodlands Village Caravan Park",, -19.239796, 146.664383,9,http://translink.com.au/stop/890550/gtfs/,0,,
890551,890551,"42 Mount Low Parkway near Bruce Hwy",, -19.238421, 146.664672,9,http://translink.com.au/stop/890551/gtfs/,0,,
890552,890552,"66 Mount Low Parkway near Frendon Pde",, -19.231682, 146.669478,9,http://translink.com.au/stop/890552/gtfs/,0,,
890553,890553,"106 Mount Low Parkway near Shoalmarra Dr",, -19.224437, 146.669871,9,http://translink.com.au/stop/890553/gtfs/,0,,
890554,890554,"Mount Low Parkway near Shoalmarra Dr",, -19.220057, 146.669971,9,http://translink.com.au/stop/890554/gtfs/,0,,
890555,890555,"178 Mount Low Parkway near Lionel Turner Dr",, -19.211451, 146.670220,10,http://translink.com.au/stop/890555/gtfs/,0,,
890556,890556,"Mount Low Pkwy near Lionel Turner Dr",, -19.209395, 146.670225,10,http://translink.com.au/stop/890556/gtfs/,0,,
890557,890557,"Mount Low Parkway near Lionel Turner Dr",, -19.202047, 146.673240,10,http://translink.com.au/stop/890557/gtfs/,0,,
890558,890558,"Mount Low Parkway near Coutts Dr",, -19.194381, 146.675348,10,http://translink.com.au/stop/890558/gtfs/,0,,
890559,890559,"Mostyn Crescent near Coutts Dr",, -19.189898, 146.667657,10,http://translink.com.au/stop/890559/gtfs/,0,,
890560,890560,"Coutts Drive near Mostyn Cres",, -19.189667, 146.670455,10,http://translink.com.au/stop/890560/gtfs/,0,,
890561,890561,"Coutts Drive near Mahogany Ct",, -19.192964, 146.672848,10,http://translink.com.au/stop/890561/gtfs/,0,,
890562,890562,"Mount Low Parkway near Manuka Ct",, -19.191861, 146.677116,10,http://translink.com.au/stop/890562/gtfs/,0,,
890563,890563,"Mt Low Parkway near Coutts Dr",, -19.193838, 146.675760,10,http://translink.com.au/stop/890563/gtfs/,0,,
890564,890564,"Balsam St near Bunya St",, -19.195163, 146.677566,10,http://translink.com.au/stop/890564/gtfs/,0,,
890565,890565,"Marina Dr at Marina Drive",, -19.196709, 146.680139,10,http://translink.com.au/stop/890565/gtfs/,0,,
890566,890566,"Mount Low Pkwy near Lionel Turner Dr",, -19.209249, 146.670862,10,http://translink.com.au/stop/890566/gtfs/,0,,
890567,890567,"177 Mount Low Parkway near Lionel Turner Dr",, -19.211058, 146.670701,10,http://translink.com.au/stop/890567/gtfs/,0,,
890568,890568,"149 Mount Low Parkway near Shoalmarra Dr",, -19.216200, 146.670621,10,http://translink.com.au/stop/890568/gtfs/,0,,
890569,890569,"119 Mount Low Parkway near Shoalmarra Dr",, -19.222026, 146.670312,9,http://translink.com.au/stop/890569/gtfs/,0,,
890570,890570,"91 Mount Low Parkway near Shoalmarra Dr",, -19.227012, 146.670121,9,http://translink.com.au/stop/890570/gtfs/,0,,
890571,890571,"71 Mount Low Parkway near Equardo Rd",, -19.230888, 146.670110,9,http://translink.com.au/stop/890571/gtfs/,0,,
890572,890572,"47 Mount Low Parkway near Frendon Pde",, -19.234226, 146.667873,9,http://translink.com.au/stop/890572/gtfs/,0,,
890573,890573,"42 Mount Low Parkway near Bonnett Rd",, -19.235120, 146.666669,9,http://translink.com.au/stop/890573/gtfs/,0,,
890574,890574,"Mount Low Pkwy near Bruce Hwy",, -19.238631, 146.665261,9,http://translink.com.au/stop/890574/gtfs/,0,,
890575,890575,"Veales Rd near Joanne St",, -19.240307, 146.653624,9,http://translink.com.au/stop/890575/gtfs/,0,,
890576,890576,"Veales Road near Joanne St",, -19.245355, 146.653074,9,http://translink.com.au/stop/890576/gtfs/,0,,
890578,890578,"Macquarie St near Darling Rd",, -19.246581, 146.648714,9,http://translink.com.au/stop/890578/gtfs/,0,,
890579,890579,"Macquarie St near Jensen Rd",, -19.248948, 146.646356,9,http://translink.com.au/stop/890579/gtfs/,0,,
890580,890580,"Jensen Rd near Veales St",, -19.251059, 146.651453,9,http://translink.com.au/stop/890580/gtfs/,0,,
890581,890581,"1 Jensen Rd near Geaney Lane",, -19.251324, 146.655289,9,http://translink.com.au/stop/890581/gtfs/,0,,
890582,890582,"179 Geaney Lane near Leonie St",, -19.247941, 146.661499,9,http://translink.com.au/stop/890582/gtfs/,0,,
890583,890583,"Geaney Lane near Brenton Cct",, -19.248625, 146.670538,9,http://translink.com.au/stop/890583/gtfs/,0,,
890584,890584,"Geaney Lane near Meranti St",, -19.248875, 146.672969,9,http://translink.com.au/stop/890584/gtfs/,0,,
890585,890585,"Palm Dr near Whitegum Ct",, -19.246223, 146.675827,9,http://translink.com.au/stop/890585/gtfs/,0,,
890586,890586,"Geaney Lane near Woodland Ct",, -19.249285, 146.677293,9,http://translink.com.au/stop/890586/gtfs/,0,,
890587,890587,"Geaney Lane near Hank St",, -19.249554, 146.679769,9,http://translink.com.au/stop/890587/gtfs/,0,,
890588,890588,"Ingham Rd at Coconut Glen Van Village",, -19.261580, 146.714319,4,http://translink.com.au/stop/890588/gtfs/,0,,
890589,890589,"Ingham Rd near Mather St",, -19.262454, 146.747402,4,http://translink.com.au/stop/890589/gtfs/,0,,
890590,890590,"Riverway Dr at Bluewattle Boulevard",, -19.357536, 146.732360,7,http://translink.com.au/stop/890590/gtfs/,0,,
890591,890591,"Riverway Dr near Santal Dr",, -19.353748, 146.732070,7,http://translink.com.au/stop/890591/gtfs/,0,,
890592,890592,"1099 Riverway Dr near Santal Dr",, -19.351554, 146.731241,7,http://translink.com.au/stop/890592/gtfs/,0,,
890593,890593,"Riverway Dr at Illuta St",, -19.348675, 146.729580,7,http://translink.com.au/stop/890593/gtfs/,0,,
890594,890594,"1035 Riverway Drive near Dollview Ave",, -19.345482, 146.728611,7,http://translink.com.au/stop/890594/gtfs/,0,,
890595,890595,"22 Gollogly Lane near Pinnacle Dr",, -19.340436, 146.725389,7,http://translink.com.au/stop/890595/gtfs/,0,,
890596,890596,"Gollogy Lane near Mallee St",, -19.340196, 146.722601,7,http://translink.com.au/stop/890596/gtfs/,0,,
890597,890597,"Sth Vickers Rd near Pelican Ave",, -19.339289, 146.719136,7,http://translink.com.au/stop/890597/gtfs/,0,,
890598,890598,"South Vickers Rd at Thuringowa High",, -19.336139, 146.719144,7,http://translink.com.au/stop/890598/gtfs/,0,,
890599,890599,"Jabiru Ave at Jabiru Park",, -19.333978, 146.721242,7,http://translink.com.au/stop/890599/gtfs/,0,,
890600,890600,"Jabiru Ave near Mallee St",, -19.334056, 146.723152,7,http://translink.com.au/stop/890600/gtfs/,0,,
890601,890601,"Gouldian Ave at Lorikeet Street",, -19.332138, 146.725879,7,http://translink.com.au/stop/890601/gtfs/,0,,
890602,890602,"Riverway Dr near Gregory St",, -19.322214, 146.727828,7,http://translink.com.au/stop/890602/gtfs/,0,,
890603,890603,"Pioneer Dr at Sunland Plaza",, -19.319963, 146.726841,7,http://translink.com.au/stop/890603/gtfs/,0,,
890604,890604,"Hudson St at Kirwan High School",, -19.309139, 146.734629,7,http://translink.com.au/stop/890604/gtfs/,0,,
890605,890605,"Malbon Rd at District Grand Lodge",, -19.307263, 146.738380,4,http://translink.com.au/stop/890605/gtfs/,0,,
890606,890606,"Bamford Lane near Silky Oak St",, -19.310142, 146.740397,4,http://translink.com.au/stop/890606/gtfs/,0,,
890607,890607,"Bamford Lane near Jinavic St",, -19.312000, 146.740228,4,http://translink.com.au/stop/890607/gtfs/,0,,
890610,890610,"Ross River Rd near Forrst Ave",, -19.313077, 146.742830,4,http://translink.com.au/stop/890610/gtfs/,0,,
890611,890611,"Ross River Rd at Louise Street",, -19.310821, 146.746916,4,http://translink.com.au/stop/890611/gtfs/,0,,
890612,890612,"Ross River Rd at Valencia Street",, -19.309334, 146.748699,4,http://translink.com.au/stop/890612/gtfs/,0,,
890613,890613,"Ross River Rd at Alice Street",, -19.306347, 146.751202,4,http://translink.com.au/stop/890613/gtfs/,0,,
890614,890614,"Ross River Rd at Killara Street",, -19.303135, 146.753144,4,http://translink.com.au/stop/890614/gtfs/,0,,
890615,890615,"Ross River Rd at Fitzroy Street",, -19.300452, 146.755247,4,http://translink.com.au/stop/890615/gtfs/,0,,
890616,890616,"Ross River Rd at Ignatius Park College",, -19.299204, 146.757097,4,http://translink.com.au/stop/890616/gtfs/,0,,
890618,890618,"Ross River Rd at Anne Street",, -19.296635, 146.768271,4,http://translink.com.au/stop/890618/gtfs/,0,,
890619,890619,"Ross River Rd at Charlotte Street",, -19.296204, 146.770133,4,http://translink.com.au/stop/890619/gtfs/,0,,
890620,890620,"Ross River Rd at Aitenvale Library",, -19.295994, 146.771989,4,http://translink.com.au/stop/890620/gtfs/,0,,
890621,890621,"Ross River Rd at Rodgers Street",, -19.296314, 146.776031,4,http://translink.com.au/stop/890621/gtfs/,0,,
890622,890622,"Ross River Road at Cathedral",, -19.295799, 146.777924,4,http://translink.com.au/stop/890622/gtfs/,0,,
890623,890623,"Ross River Rd at Gulliver Street",, -19.295100, 146.781786,4,http://translink.com.au/stop/890623/gtfs/,0,,
890624,890624,"Ross River Rd at Mango Avenue",, -19.294876, 146.785293,4,http://translink.com.au/stop/890624/gtfs/,0,,
890625,890625,"Ross River Rd at Mundingburra State School",, -19.295074, 146.788176,4,http://translink.com.au/stop/890625/gtfs/,0,,
890626,890626,"Ross River Rd at Mabin Street",, -19.293678, 146.791903,2,http://translink.com.au/stop/890626/gtfs/,0,,
890627,890627,"Ross River Rd at Rising Sun",, -19.291632, 146.795025,2,http://translink.com.au/stop/890627/gtfs/,0,,
890628,890628,"Charters Towers Rd at Jameson Street",, -19.289443, 146.796369,2,http://translink.com.au/stop/890628/gtfs/,0,,
890629,890629,"Charters Towers Rd at Townsend Street",, -19.285869, 146.796993,2,http://translink.com.au/stop/890629/gtfs/,0,,
890630,890630,"Charters Towers Rd at Soule Street",, -19.283457, 146.797614,2,http://translink.com.au/stop/890630/gtfs/,0,,
890631,890631,"Charters Towers Rd at Bayswater Terrace",, -19.280967, 146.798633,2,http://translink.com.au/stop/890631/gtfs/,0,,
890632,890632,"Charters Towers Rd at Hermit Park Shopping Centre",, -19.278406, 146.799683,2,http://translink.com.au/stop/890632/gtfs/,0,,
890634,890634,"Townsville City (Stanley Street)",, -19.260079, 146.814127,20,http://translink.com.au/stop/890634/gtfs/,0,,
890635,890635,"Buchan Rd near Endeavour Dr",, -19.325369, 146.752111,6,http://translink.com.au/stop/890635/gtfs/,0,,
890636,890636,"Golf Links Dr near Nineteeth Ave",, -19.317431, 146.710068,7,http://translink.com.au/stop/890636/gtfs/,0,,
890637,890637,"Golf Links Dr at Sonata Place Walkway",, -19.306085, 146.717179,7,http://translink.com.au/stop/890637/gtfs/,0,,
890638,890638,"Golf Links Dr at Senna Place Walkway",, -19.309721, 146.713069,7,http://translink.com.au/stop/890638/gtfs/,0,,
890639,890639,"Crestbrook Dr near Samson Ct",, -19.270531, 146.729794,4,http://translink.com.au/stop/890639/gtfs/,0,,
890640,890640,"Bayswater Rd near Money St",, -19.274689, 146.773016,4,http://translink.com.au/stop/890640/gtfs/,0,,
890641,890641,"Fairfield Waters Dr near Oonoonba Rd",, -19.303768, 146.812319,3,http://translink.com.au/stop/890641/gtfs/,0,,
890642,890642,"Fairfield Waters Dr near Oonoonba Rd",, -19.303839, 146.812090,3,http://translink.com.au/stop/890642/gtfs/,0,,
890643,890643,"Oonoonba Rd at Oonoonba State School",, -19.303081, 146.813475,3,http://translink.com.au/stop/890643/gtfs/,0,,
890644,890644,"Mill Dr near President St",, -19.293589, 146.741537,4,http://translink.com.au/stop/890644/gtfs/,0,,
890645,890645,"Lynwood Ave near Mount Low Pkwy",, -19.200424, 146.673399,10,http://translink.com.au/stop/890645/gtfs/,0,,
890647,890647,"Mount Low Pkwy at Peggy Banfield Park",, -19.201872, 146.673578,10,http://translink.com.au/stop/890647/gtfs/,0,,
890648,890648,"Griffey St near Bohlevale School Rd",, -19.249030, 146.685426,9,http://translink.com.au/stop/890648/gtfs/,0,,
890651,890651,"Sturt Street",, -19.258396, 146.816327,20,http://translink.com.au/stop/890651/gtfs/,0,,
890652,890652,"Sturt Street",, -19.258578, 146.816465,20,http://translink.com.au/stop/890652/gtfs/,0,,
890656,890656,"Main St at Stockland North Shore",, -19.252631, 146.699176,9,http://translink.com.au/stop/890656/gtfs/,0,,
890657,890657,"North Shore Blvd near Main St",, -19.255481, 146.703252,9,http://translink.com.au/stop/890657/gtfs/,0,,
890658,890658,"North Shore Boulevard near Burdell Dr",, -19.256352, 146.702436,9,http://translink.com.au/stop/890658/gtfs/,0,,
890659,890659,"Geaney Lane near Hank St",, -19.249668, 146.679481,9,http://translink.com.au/stop/890659/gtfs/,0,,
890660,890660,"Geaney Lane near Woodland Ct",, -19.249639, 146.678010,9,http://translink.com.au/stop/890660/gtfs/,0,,
890661,890661,"Palm Dr near Whitegum Ct",, -19.246413, 146.675891,9,http://translink.com.au/stop/890661/gtfs/,0,,
890663,890663,"128 Geaney Lane near Edinburgh Dr",, -19.248826, 146.670219,9,http://translink.com.au/stop/890663/gtfs/,0,,
890664,890664,"Duckworth St at Domain Central",, -19.276008, 146.757666,4,http://translink.com.au/stop/890664/gtfs/,0,,
890666,890666,"Ingham Rd near Everett St",, -19.260574, 146.726980,4,http://translink.com.au/stop/890666/gtfs/,0,,
890667,890667,"Ingham Rd near Everett St",, -19.260939, 146.726907,4,http://translink.com.au/stop/890667/gtfs/,0,,
890668,890668,"Jensen Rd near Haynes Rd",, -19.251028, 146.649386,9,http://translink.com.au/stop/890668/gtfs/,0,,
890669,890669,"Macquarie St near Darling Rd",, -19.245877, 146.649909,9,http://translink.com.au/stop/890669/gtfs/,0,,
890670,890670,"Edison St near MacFarlane St",, -19.325275, 146.810250,3,http://translink.com.au/stop/890670/gtfs/,0,,
890671,890671,"Edison St near Newton St",, -19.325102, 146.810631,3,http://translink.com.au/stop/890671/gtfs/,0,,
890674,890674,"Greenwood Dr near Overton Circuit",, -19.295412, 146.732848,4,http://translink.com.au/stop/890674/gtfs/,0,,
890675,890675,"Riverway Dr at Illuta Street",, -19.348573, 146.729902,7,http://translink.com.au/stop/890675/gtfs/,0,,
890677,890677,"Mill Dr at Fulham Road",, -19.293202, 146.748050,4,http://translink.com.au/stop/890677/gtfs/,0,,
890681,890681,"Stuart Dr at Edison Street",, -19.320631, 146.815992,3,http://translink.com.au/stop/890681/gtfs/,0,,
890682,890682,"Stuart Dr at Lowe Street",, -19.342936, 146.833550,3,http://translink.com.au/stop/890682/gtfs/,0,,
890683,890683,"Lakeside Dr near D'Arcy Dr",, -19.315653, 146.818130,3,http://translink.com.au/stop/890683/gtfs/,0,,
890684,890684,"Main St near Nexus Dr",, -19.252553, 146.699322,9,http://translink.com.au/stop/890684/gtfs/,0,,
890685,890685,"Macarthur Dr at Morestone Street",, -19.312495, 146.786637,3,http://translink.com.au/stop/890685/gtfs/,0,,
890686,890686,"Macarthur Dr at Morestone Street",, -19.312606, 146.786483,3,http://translink.com.au/stop/890686/gtfs/,0,,
890687,890687,"Angus Smith Dr at Riverside Boulevard",, -19.317036, 146.759411,6,http://translink.com.au/stop/890687/gtfs/,0,,
890688,890688,"Riverway Dr near Gouldian Ave",, -19.331792, 146.727303,7,http://translink.com.au/stop/890688/gtfs/,0,,
890689,890689,"Veales Rd at Joanne Street",, -19.238462, 146.653477,9,http://translink.com.au/stop/890689/gtfs/,0,,
890690,890690,"Veales Road near Macquarie St",, -19.245065, 146.652682,9,http://translink.com.au/stop/890690/gtfs/,0,,
890695,890695,"Riverway Dr at Bluewattle Boulevard",, -19.359028, 146.732460,7,http://translink.com.au/stop/890695/gtfs/,0,,
890696,890696,"Golf Links Dr near Ashford Ct",, -19.299867, 146.717269,7,http://translink.com.au/stop/890696/gtfs/,0,,
890697,890697,"Golf Links Dr near Ashford Ct",, -19.300878, 146.717712,7,http://translink.com.au/stop/890697/gtfs/,0,,
890698,890698,"Scarisbrick Dr at Bel Air Avenue",, -19.298102, 146.721445,7,http://translink.com.au/stop/890698/gtfs/,0,,
890699,890699,"Mount Louisa Dr at Hastings Street",, -19.274375, 146.747038,4,http://translink.com.au/stop/890699/gtfs/,0,,
890700,890700,"Scarisbrick Dr at Bel Air Avenue",, -19.297974, 146.721466,7,http://translink.com.au/stop/890700/gtfs/,0,,
890702,890702,"Kern Brothers Dr at Avenues Plaza",, -19.300366, 146.725979,7,http://translink.com.au/stop/890702/gtfs/,0,,
890703,890703,"104 Kern Brothers Drive near Sandstone Dr",, -19.308767, 146.723265,7,http://translink.com.au/stop/890703/gtfs/,0,,
890705,890705,"Ross River Rd near Bamford Lane",, -19.313238, 146.740547,4,http://translink.com.au/stop/890705/gtfs/,0,,
890706,890706,"Kern Brothers Dr at Avenues Plaza",, -19.300297, 146.725680,7,http://translink.com.au/stop/890706/gtfs/,0,,
890707,890707,"Lakeside Dr near D'Arcy Dr",, -19.315023, 146.819224,3,http://translink.com.au/stop/890707/gtfs/,0,,
890711,890711,"Meranti St nr Northern Beaches High School (HnR)",, -19.247104, 146.673842,9,http://translink.com.au/stop/890711/gtfs/,0,,
890712,890712,"Dean Street at Palmer Street",, -19.261100, 146.819200,20,http://translink.com.au/stop/890712/gtfs/,0,,
890713,890713,"Village Drive at Kokada Drive",, -19.307090, 146.806030,3,http://translink.com.au/stop/890713/gtfs/,0,,
890714,890714,"Village Drive at Fairfield Waters Drive",, -19.307340, 146.806420,3,http://translink.com.au/stop/890714/gtfs/,0,,
890838,890838,"Riverway Drive at Gumvale Shops",, -19.342167, 146.728035,7,http://translink.com.au/stop/890838/gtfs/,0,,
890839,890839,"Riverway Drive at Gumvale Shops",, -19.341578, 146.728220,7,http://translink.com.au/stop/890839/gtfs/,0,,
890891,890891,"Townsville City Stop A",, -19.260936, 146.816668,20,http://translink.com.au/stop/890891/gtfs/,0,,
890892,890892,"Townsville City Stop B",, -19.261032, 146.816590,20,http://translink.com.au/stop/890892/gtfs/,0,,
